<?xml version="1.0" encoding="utf-8"?>
<ArrayOfVolunteer>
  <Volunteer>
    <Id>389540391</Id>
    <FullName>Dani Levy</FullName>
    <PhoneNumber>0541111111</PhoneNumber>
    <Email>dani@gmail.com</Email>
    <Password></Password>
    <CurrentFullAddress>29 Chinggis Avenue, Ulaanbaatar, Mongolia</CurrentFullAddress>
    <Latitude>47.8862</Latitude>
    <Longitude>106.9057</Longitude>
    <Role>Volunteer</Role>
    <IsActive>True</IsActive>
    <MaxDistanceForCall>82</MaxDistanceForCall>
    <DistanceType>Air</DistanceType>
  </Volunteer>
  <Volunteer>
    <Id>365906357</Id>
    <FullName>Shira Cohen</FullName>
    <PhoneNumber>0542222222</PhoneNumber>
    <Email>shira@gmail.com</Email>
    <Password></Password>
    <CurrentFullAddress>2 Tindall Street, Nelson, New Zealand</CurrentFullAddress>
    <Latitude>-40.517</Latitude>
    <Longitude>173.2885</Longitude>
    <Role>Volunteer</Role>
    <IsActive>True</IsActive>
    <MaxDistanceForCall>30</MaxDistanceForCall>
    <DistanceType>Air</DistanceType>
  </Volunteer>
  <Volunteer>
    <Id>275486578</Id>
    <FullName>Tali Amar</FullName>
    <PhoneNumber>0543333333</PhoneNumber>
    <Email>tali@gmail.com</Email>
    <Password></Password>
    <CurrentFullAddress>Via Lago di Bracciano 32, 00069 Trevignano Romano, Italy</CurrentFullAddress>
    <Latitude>42.135</Latitude>
    <Longitude>12.2715</Longitude>
    <Role>Volunteer</Role>
    <IsActive>True</IsActive>
    <MaxDistanceForCall>73</MaxDistanceForCall>
    <DistanceType>Air</DistanceType>
  </Volunteer>
  <Volunteer>
    <Id>301799345</Id>
    <FullName>Yair Israelof</FullName>
    <PhoneNumber>0544444444</PhoneNumber>
    <Email>yair@gmail.com</Email>
    <Password></Password>
    <CurrentFullAddress>145 Kulusuk, Greenland</CurrentFullAddress>
    <Latitude>65.6233</Latitude>
    <Longitude>-37.4594</Longitude>
    <Role>Volunteer</Role>
    <IsActive>True</IsActive>
    <MaxDistanceForCall>73</MaxDistanceForCall>
    <DistanceType>Air</DistanceType>
  </Volunteer>
  <Volunteer>
    <Id>327200251</Id>
    <FullName>Eli Klein</FullName>
    <PhoneNumber>0545555555</PhoneNumber>
    <Email>eli@gmail.com</Email>
    <Password></Password>
    <CurrentFullAddress>Vorshikhinskaya Street 11, Yakutsk, Russia</CurrentFullAddress>
    <Latitude>62.036</Latitude>
    <Longitude>129.7327</Longitude>
    <Role>Volunteer</Role>
    <IsActive>True</IsActive>
    <MaxDistanceForCall>48</MaxDistanceForCall>
    <DistanceType>Air</DistanceType>
  </Volunteer>
  <Volunteer>
    <Id>315476669</Id>
    <FullName>Maya Shimon</FullName>
    <PhoneNumber>0546666666</PhoneNumber>
    <Email>maya@gmail.com</Email>
    <Password></Password>
    <CurrentFullAddress>Calle de los Reyes Católicos, 23, Fuerteventura, Spain</CurrentFullAddress>
    <Latitude>28.432</Latitude>
    <Longitude>-13.8597</Longitude>
    <Role>Volunteer</Role>
    <IsActive>True</IsActive>
    <MaxDistanceForCall>45</MaxDistanceForCall>
    <DistanceType>Air</DistanceType>
  </Volunteer>
  <Volunteer>
    <Id>223448703</Id>
    <FullName>Avi Ben-David</FullName>
    <PhoneNumber>0547777777</PhoneNumber>
    <Email>avi@gmail.com</Email>
    <Password></Password>
    <CurrentFullAddress>9 Ngong Road, Nairobi, Kenya</CurrentFullAddress>
    <Latitude>-1.2864</Latitude>
    <Longitude>36.825</Longitude>
    <Role>Volunteer</Role>
    <IsActive>True</IsActive>
    <MaxDistanceForCall>17</MaxDistanceForCall>
    <DistanceType>Air</DistanceType>
  </Volunteer>
</ArrayOfVolunteer>